places = [{"name":"Yellowstone National Park","description":"3,471 square miles","lat":44.428,"long":-110.5885},
{"name":"Great Smokey Mountains","description":"800 square miles","lat":35.6532,"long":-83.507},
{"name":"Grand Canyon National Park","description":"1,902 square miles","lat":36.0544,"long":-112.125092},
{"name":"Zion National Park","description":"229.1 square miles","lat":37.317207,"long":-113.022537},
{"name":"Yosemite National Park","description":"1,169 square miles","lat":37.865101,"long":-119.53833},
{"name":"Badlands National Park","description":"379.3 square miles","lat":43.8554,"long":-102.3397},
{"name":"Rocky Mountain National Park","description":"358 square miles","lat":40.3428,"long":-105.6836},
{"name":"Joshua Tree National Park","description":"1,235 square miles","lat":33.8734,"long":-115.901},
{"name":"Shenandoah National Park","description":"311.2 square miles","lat":38.2928,"long":-78.6796},
{"name":"Mount Rainier National Park","description":"369.3 square miles","lat":46.88,"long":-121.7269},
{"name":"Sequoia National Park","description":"631 square miles","lat":36.4864,"long":-118.5658},
{"name":"Redwood National Park","description":"172 square miles","lat":41.2132,"long":-124.0046},
{"name":"Big Bend National Park","description":"1,252 square miles","lat":29.1275,"long":-103.2425},
{"name":"Glacier National Park","description":"16,000 square miles","lat":48.7596,"long":-113.787},
{"name":"Olympic National Park","description":"1,442 square miles","lat":47.8021,"long":-123.6044},
{"name":"Grand Teton National Park","description":"480 square miles","lat":43.7904,"long":-110.6818},
{"name":"Great Sand Dunes National Park","description":"232.9 square miles","lat":37.7916,"long":-105.5943},
{"name":"Death Valley National Park","description":"5,262 square miles","lat":36.5323,"long":-116.9325},
{"name":"Theodore Roosevelt National Park","description":"110.1 square miles","lat":46.979,"long":-103.5387},
{"name":"Bryce Canyon National Park","description":"55.98 square miles","lat":37.593,"long":-112.1871}]
